cluster_id,sequence,store_name,latitude,longitude,distance_from_origin_km
1,1,Origin,3.2053,101.5566,0
1,2,PASAR MINI PAYA JARAS,3.2002098,101.5507472,0.8617
1,3,ADA CASH & CARRY SDN BHD (Mon: No delivery after 2 pm),3.210918,101.567095,1.3221
1,4,AURA NURILHAM ENTERPRISE,3.2153632,101.5662228,1.5471
1,5,RAJDHANI SDN BHD,3.2121628,101.5726418,1.9376
1,6,PERNIAGAAN SUNGHO FOOD SDN BHD,3.224367,101.5631572,2.2417
1,7,BUMI SEHATI FROZEN FOOD SDN BHD,3.188154,101.573128,2.6461
1,8,BRICK HOUSE SDN. BHD.,3.1877839,101.5758332,2.8902
1,9,BINTANG HU TRADING(FRIDAY CLOSED),3.2118755,101.5300983,3.0317
1,10,DAMANSARA DAMAI ENTERPRISE (12pm-3pm close),3.1893964,101.5883007,3.9388
1,11,RAYYAN SPEEDMART(MOHD LUKMAN),3.1981898,101.5948604,4.3207
1,12,KAMPONG KOH SAUCE (M) SDN BHD - (DELIVERY BEFORE 12PM),3.20282,101.604827,5.3613
1,13,K.I.P FRESH MART ( ALL DAY OPEN ),3.206097,101.607407,5.6413
1,14,BINTANG HU TRADING (FRIDAY CLOSED),3.2073436,101.4969526,6.6260
1,15,KEDAI UBAT & RUNCIT HONG NING DESA AMAN PURI SDN BHD,3.212419,101.615643,6.6026
2,1,Origin,3.2053,101.5566,0
2,2,FOOK XIN TANG MINI MARKET SDN. BHD. (After 5pm: NO DELIVERY),3.212246,101.615597,6.5953
2,3,JT FOOD MART,3.183989,101.613656,6.7632
2,4,JIN HUANG,3.183931,101.613617,6.7614
2,5,FOONG YUEN DIM SUM SDN BHD,3.210003,101.6172518,6.7539
2,6,NASABE ENTERPRISE (12pm-3pm close),3.2250317,101.4981694,6.8480
2,7,RESTORAN NURI AL NISAR,3.2032786,101.4843394,8.0256
2,8,BIG TREE CORNER,3.219705044,101.6294093,8.2405
2,9,KINDNESS ENTERPRISE,3.201396,101.631682,8.3470
2,10,JODAN WORLD SDN BHD,3.215355,101.639214,9.2397
2,11,KS SMART MART SDN. BHD. (Mon-Sat: 9am-7pm),3.1995828,101.4554655,11.2461
2,12,BIG FAMILY RESTAURANT SDN BHD,3.1665038,101.4253537,15.1965
2,13,MAKASSAR FRESH MARKET SDN BHD,3.197221,101.712079,17.2849
